{
    "states": [
        {
            "name": "Acre",
            "longitude": "-70",
            "geonameid": 3665474,
            "population": 732793,
            "latitude": "-9",
            "shortname": "AC",
            "cities": [
                {
                    "name": "Acrelândia",
                    "longitude": "-66.84388",
                    "geonameid": 6319276,
                    "population": 12538,
                    "latitude": "-9.98045"
                },
                {
                    "name": "Assis Brasil",
                    "longitude": "-70.01314",
                    "geonameid": 6319277,
                    "population": 6075,
                    "latitude": "-10.88334"
                },
                {
                    "name": "Brasiléia",
                    "longitude": "-69.01141",
                    "geonameid": 6319278,
                    "population": 21438,
                    "latitude": "-10.76771"
                },
                {
                    "name": "Bujari",
                    "longitude": "-68.17197",
                    "geonameid": 6319279,
                    "population": 8474,
                    "latitude": "-9.57859"
                },
                {
                    "name": "Capixaba",
                    "longitude": "-67.84831",
                    "geonameid": 6319280,
                    "population": 8810,
                    "latitude": "-10.48782"
                },
                {
                    "name": "Cruzeiro do Sul",
                    "longitude": "-72.92977",
                    "geonameid": 6319281,
                    "population": 78444,
                    "latitude": "-8.01594"
                },
                {
                    "name": "Epitaciolândia",
                    "longitude": "-68.44411",
                    "geonameid": 6319282,
                    "population": 15126,
                    "latitude": "-10.93542"
                },
                {
                    "name": "Feijó",
                    "longitude": "-70.91489",
                    "geonameid": 6324175,
                    "population": 32311,
                    "latitude": "-8.90496"
                },
                {
                    "name": "Jordão",
                    "longitude": "-71.84069",
                    "geonameid": 6319283,
                    "population": 6531,
                    "latitude": "-9.09166"
                },
                {
                    "name": "Manoel Urbano",
                    "longitude": "-70.01242",
                    "geonameid": 6324176,
                    "population": 7989,
                    "latitude": "-9.48951"
                },
                {
                    "name": "Marechal Thaumaturgo",
                    "longitude": "-72.56853",
                    "geonameid": 6319285,
                    "population": 14200,
                    "latitude": "-9.18989"
                },
                {
                    "name": "Mâncio Lima",
                    "longitude": "-73.45826",
                    "geonameid": 6319284,
                    "population": 15246,
                    "latitude": "-7.53963"
                },
                {
                    "name": "Plácido de Castro",
                    "longitude": "-67.26817",
                    "geonameid": 6319286,
                    "population": 17203,
                    "latitude": "-10.29428"
                },
                {
                    "name": "Porto Acre",
                    "longitude": "-67.77733",
                    "geonameid": 6319293,
                    "population": 14806,
                    "latitude": "-9.65038"
                },
                {
                    "name": "Porto Walter",
                    "longitude": "-72.82065",
                    "geonameid": 6319287,
                    "population": 9172,
                    "latitude": "-8.52474"
                },
                {
                    "name": "Rio Branco",
                    "longitude": "-68.15532",
                    "geonameid": 6319288,
                    "population": 335796,
                    "latitude": "-10.06989"
                },
                {
                    "name": "Rodrigues Alves",
                    "longitude": "-73.23613",
                    "geonameid": 6319289,
                    "population": 14334,
                    "latitude": "-7.85286"
                },
                {
                    "name": "Santa Rosa do Purus",
                    "longitude": "-70.39032",
                    "geonameid": 6324177,
                    "population": 4612,
                    "latitude": "-9.4773"
                },
                {
                    "name": "Sena Madureira",
                    "longitude": "-69.54974",
                    "geonameid": 6324178,
                    "population": 37993,
                    "latitude": "-10.03565"
                },
                {
                    "name": "Senador Guiomard",
                    "longitude": "-67.39314",
                    "geonameid": 6319290,
                    "population": 20153,
                    "latitude": "-9.9408"
                },
                {
                    "name": "Tarauacá",
                    "longitude": "-71.42343",
                    "geonameid": 6319291,
                    "population": 35526,
                    "latitude": "-8.65516"
                },
                {
                    "name": "Xapuri",
                    "longitude": "-68.64891",
                    "geonameid": 6319292,
                    "population": 16016,
                    "latitude": "-10.59663"
                }
            ]
        },
        {
            "name": "Alagoas",
            "longitude": "-36.41667",
            "geonameid": 3408096,
            "population": 3120922,
            "latitude": "-9.58333",
            "shortname": "AL",
            "cities": [
                {
                    "name": "Anadia",
                    "longitude": "-36.3379",
                    "geonameid": 3407692,
                    "population": 17423,
                    "latitude": "-9.67495"
                },
                {
                    "name": "Arapiraca",
                    "longitude": "-36.59315",
                    "geonameid": 3407326,
                    "population": 214067,
                    "latitude": "-9.7438"
                },
                {
                    "name": "Atalaia",
                    "longitude": "-36.07459",
                    "geonameid": 6320620,
                    "population": 44379,
                    "latitude": "-9.52983"
                },
                {
                    "name": "Barra de Santo Antônio",
                    "longitude": "-35.56544",
                    "geonameid": 6319070,
                    "population": 14228,
                    "latitude": "-9.39752"
                },
                {
                    "name": "Barra de São Miguel",
                    "longitude": "-35.96087",
                    "geonameid": 6320621,
                    "population": 7573,
                    "latitude": "-9.8123"
                },
                {
                    "name": "Batalha",
                    "longitude": "-37.08877",
                    "geonameid": 3405992,
                    "population": 17076,
                    "latitude": "-9.73256"
                },
                {
                    "name": "Belo Monte",
                    "longitude": "-37.19157",
                    "geonameid": 6324272,
                    "population": 7032,
                    "latitude": "-9.80521"
                },
                {
                    "name": "Belém",
                    "longitude": "-36.50196",
                    "geonameid": 6320622,
                    "population": 4551,
                    "latitude": "-9.54424"
                },
                {
                    "name": "Boca da Mata",
                    "longitude": "-36.14134",
                    "geonameid": 6320623,
                    "population": 25780,
                    "latitude": "-9.64651"
                },
                {
                    "name": "Branquinha",
                    "longitude": "-36.08956",
                    "geonameid": 6320624,
                    "population": 10586,
                    "latitude": "-9.21168"
                },
                {
                    "name": "Cacimbinhas",
                    "longitude": "-36.9047",
                    "geonameid": 6324306,
                    "population": 10197,
                    "latitude": "-9.44899"
                },
                {
                    "name": "Cajueiro",
                    "longitude": "-36.15775",
                    "geonameid": 6320625,
                    "population": 20410,
                    "latitude": "-9.37635"
                },
                {
                    "name": "Campestre",
                    "longitude": "-35.53237",
                    "geonameid": 6320626,
                    "population": 6599,
                    "latitude": "-8.89393"
                },
                {
                    "name": "Campo Alegre",
                    "longitude": "-36.28566",
                    "geonameid": 6320627,
                    "population": 50831,
                    "latitude": "-9.79335"
                },
                {
                    "name": "Campo Grande",
                    "longitude": "-36.75593",
                    "geonameid": 6324307,
                    "population": 9032,
                    "latitude": "-9.94997"
                },
                {
                    "name": "Canapi",
                    "longitude": "-37.51985",
                    "geonameid": 6319071,
                    "population": 17248,
                    "latitude": "-9.17327"
                },
                {
                    "name": "Capela",
                    "longitude": "-36.1239",
                    "geonameid": 6320628,
                    "population": 17077,
                    "latitude": "-9.39342"
                },
                {
                    "name": "Carneiros",
                    "longitude": "-37.35559",
                    "geonameid": 6320629,
                    "population": 8290,
                    "latitude": "-9.46467"
                },
                {
                    "name": "Chã Preta",
                    "longitude": "-36.33049",
                    "geonameid": 6320630,
                    "population": 7146,
                    "latitude": "-9.22921"
                },
                {
                    "name": "Coité do Nóia",
                    "longitude": "-36.60044",
                    "geonameid": 6320631,
                    "population": 10926,
                    "latitude": "-9.62616"
                },
                {
                    "name": "Colônia Leopoldina",
                    "longitude": "-35.76005",
                    "geonameid": 6320632,
                    "population": 20022,
                    "latitude": "-8.94183"
                },
                {
                    "name": "Coqueiro Seco",
                    "longitude": "-35.80938",
                    "geonameid": 6320633,
                    "population": 5523,
                    "latitude": "-9.64656"
                },
                {
                    "name": "Coruripe",
                    "longitude": "-36.19964",
                    "geonameid": 6319163,
                    "population": 52160,
                    "latitude": "-10.0745"
                },
                {
                    "name": "Craíbas",
                    "longitude": "-36.80273",
                    "geonameid": 6324308,
                    "population": 22643,
                    "latitude": "-9.60115"
                },
                {
                    "name": "Delmiro Gouveia",
                    "longitude": "-38.02477",
                    "geonameid": 3401108,
                    "population": 48090,
                    "latitude": "-9.44453"
                },
                {
                    "name": "Dois Riachos",
                    "longitude": "-37.06571",
                    "geonameid": 6320634,
                    "population": 10879,
                    "latitude": "-9.35824"
                },
                {
                    "name": "Estrela de Alagoas",
                    "longitude": "-36.76219",
                    "geonameid": 6324309,
                    "population": 17254,
                    "latitude": "-9.39858"
                },
                {
                    "name": "Feira Grande",
                    "longitude": "-36.66953",
                    "geonameid": 3399683,
                    "population": 21325,
                    "latitude": "-9.9247"
                },
                {
                    "name": "Feliz Deserto",
                    "longitude": "-36.35367",
                    "geonameid": 6320635,
                    "population": 4332,
                    "latitude": "-10.2908"
                },
                {
                    "name": "Flexeiras",
                    "longitude": "-35.78",
                    "geonameid": 6320636,
                    "population": 12339,
                    "latitude": "-9.20061"
                },
                {
                    "name": "Girau do Ponciano",
                    "longitude": "-36.84199",
                    "geonameid": 6324310,
                    "population": 36625,
                    "latitude": "-9.78382"
                },
                {
                    "name": "Ibateguara",
                    "longitude": "-35.90963",
                    "geonameid": 6320637,
                    "population": 15133,
                    "latitude": "-8.89691"
                },
                {
                    "name": "Igaci",
                    "longitude": "-36.67416",
                    "geonameid": 6324273,
                    "population": 25197,
                    "latitude": "-9.57998"
                },
                {
                    "name": "Igreja Nova",
                    "longitude": "-36.61724",
                    "geonameid": 3461483,
                    "population": 23298,
                    "latitude": "-10.1666"
                },
                {
                    "name": "Inhapi",
                    "longitude": "-37.63623",
                    "geonameid": 6320638,
                    "population": 17902,
                    "latitude": "-9.27726"
                },
                {
                    "name": "Jacaré dos Homens",
                    "longitude": "-37.22275",
                    "geonameid": 6324268,
                    "population": 5413,
                    "latitude": "-9.67278"
                },
                {
                    "name": "Jacuípe",
                    "longitude": "-35.45885",
                    "geonameid": 6320639,
                    "population": 6986,
                    "latitude": "-8.87722"
                },
                {
                    "name": "Japaratinga",
                    "longitude": "-35.29631",
                    "geonameid": 6320640,
                    "population": 7752,
                    "latitude": "-9.099"
                },
                {
                    "name": "Jaramataia",
                    "longitude": "-36.96036",
                    "geonameid": 6320641,
                    "population": 5562,
                    "latitude": "-9.65053"
                },
                {
                    "name": "Jequiá da Praia",
                    "longitude": "-36.09896",
                    "geonameid": 6319205,
                    "population": 12035,
                    "latitude": "-9.91151"
                },
                {
                    "name": "Joaquim Gomes",
                    "longitude": "-35.73739",
                    "geonameid": 6320642,
                    "population": 22581,
                    "latitude": "-9.10352"
                },
                {
                    "name": "Jundiá",
                    "longitude": "-35.53022",
                    "geonameid": 6320643,
                    "population": 4202,
                    "latitude": "-8.96433"
                },
                {
                    "name": "Junqueiro",
                    "longitude": "-36.4564",
                    "geonameid": 3397062,
                    "population": 23854,
                    "latitude": "-9.88524"
                },
                {
                    "name": "Lagoa da Canoa",
                    "longitude": "-36.74811",
                    "geonameid": 6320644,
                    "population": 18253,
                    "latitude": "-9.80722"
                },
                {
                    "name": "Limoeiro de Anadia",
                    "longitude": "-36.45407",
                    "geonameid": 3396269,
                    "population": 26992,
                    "latitude": "-9.72685"
                },
                {
                    "name": "Maceió",
                    "longitude": "-35.68994",
                    "geonameid": 6320645,
                    "population": 932608,
                    "latitude": "-9.57135"
                },
                {
                    "name": "Major Isidoro",
                    "longitude": "-36.9649",
                    "geonameid": 3395879,
                    "population": 18901,
                    "latitude": "-9.51685"
                },
                {
                    "name": "Mar Vermelho",
                    "longitude": "-36.35042",
                    "geonameid": 6320649,
                    "population": 3652,
                    "latitude": "-9.49247"
                },
                {
                    "name": "Maragogi",
                    "longitude": "-35.27599",
                    "geonameid": 6320646,
                    "population": 28746,
                    "latitude": "-8.95855"
                },
                {
                    "name": "Maravilha",
                    "longitude": "-37.37936",
                    "geonameid": 6320647,
                    "population": 10276,
                    "latitude": "-9.22305"
                },
                {
                    "name": "Marechal Deodoro",
                    "longitude": "-35.90313",
                    "geonameid": 6320648,
                    "population": 45994,
                    "latitude": "-9.70897"
                },
                {
                    "name": "Maribondo",
                    "longitude": "-36.34027",
                    "geonameid": 6324311,
                    "population": 13614,
                    "latitude": "-9.55091"
                },
                {
                    "name": "Mata Grande",
                    "longitude": "-37.7615",
                    "geonameid": 3395161,
                    "population": 24702,
                    "latitude": "-8.98543"
                },
                {
                    "name": "Matriz de Camaragibe",
                    "longitude": "-35.57613",
                    "geonameid": 6320650,
                    "population": 23780,
                    "latitude": "-9.13832"
                },
                {
                    "name": "Messias",
                    "longitude": "-35.82216",
                    "geonameid": 6320651,
                    "population": 15682,
                    "latitude": "-9.32115"
                },
                {
                    "name": "Minador do Negrão",
                    "longitude": "-36.88626",
                    "geonameid": 6320652,
                    "population": 5280,
                    "latitude": "-9.31858"
                },
                {
                    "name": "Monteirópolis",
                    "longitude": "-37.2935",
                    "geonameid": 6320653,
                    "population": 6944,
                    "latitude": "-9.62019"
                },
                {
                    "name": "Murici",
                    "longitude": "-35.89999",
                    "geonameid": 6320654,
                    "population": 26706,
                    "latitude": "-9.29835"
                },
                {
                    "name": "Novo Lino",
                    "longitude": "-35.61948",
                    "geonameid": 6320655,
                    "population": 12069,
                    "latitude": "-8.88091"
                },
                {
                    "name": "Olho d'Água Grande",
                    "longitude": "-36.79522",
                    "geonameid": 6320656,
                    "population": 4957,
                    "latitude": "-10.05622"
                },
                {
                    "name": "Olho d'Água das Flores",
                    "longitude": "-37.25214",
                    "geonameid": 3393598,
                    "population": 20367,
                    "latitude": "-9.54034"
                },
                {
                    "name": "Olho d'Água do Casado",
                    "longitude": "-37.83496",
                    "geonameid": 6324269,
                    "population": 8491,
                    "latitude": "-9.45648"
                },
                {
                    "name": "Olivença",
                    "longitude": "-37.16681",
                    "geonameid": 6320657,
                    "population": 11057,
                    "latitude": "-9.4695"
                },
                {
                    "name": "Ouro Branco",
                    "longitude": "-37.37367",
                    "geonameid": 6320658,
                    "population": 10911,
                    "latitude": "-9.12895"
                },
                {
                    "name": "Palestina",
                    "longitude": "-37.331",
                    "geonameid": 6320659,
                    "population": 5112,
                    "latitude": "-9.67504"
                },
                {
                    "name": "Palmeira dos Índios",
                    "longitude": "-36.60651",
                    "geonameid": 3393241,
                    "population": 70434,
                    "latitude": "-9.40902"
                },
                {
                    "name": "Pariconha",
                    "longitude": "-38.0167",
                    "geonameid": 6320660,
                    "population": 10246,
                    "latitude": "-9.22039"
                },
                {
                    "name": "Paripueira",
                    "longitude": "-35.58979",
                    "geonameid": 6320661,
                    "population": 11349,
                    "latitude": "-9.4294"
                },
                {
                    "name": "Passo de Camaragibe",
                    "longitude": "-35.42788",
                    "geonameid": 6320662,
                    "population": 14772,
                    "latitude": "-9.29865"
                },
                {
                    "name": "Paulo Jacinto",
                    "longitude": "-36.39294",
                    "geonameid": 6320663,
                    "population": 7426,
                    "latitude": "-9.36843"
                },
                {
                    "name": "Penedo",
                    "longitude": "-36.46992",
                    "geonameid": 3454224,
                    "population": 60389,
                    "latitude": "-10.24448"
                },
                {
                    "name": "Piaçabuçu",
                    "longitude": "-36.41903",
                    "geonameid": 6320664,
                    "population": 17219,
                    "latitude": "-10.37386"
                },
                {
                    "name": "Pilar",
                    "longitude": "-36.06323",
                    "geonameid": 6320665,
                    "population": 33312,
                    "latitude": "-9.61752"
                },
                {
                    "name": "Pindoba",
                    "longitude": "-36.30343",
                    "geonameid": 6320666,
                    "population": 2866,
                    "latitude": "-9.47492"
                },
                {
                    "name": "Piranhas",
                    "longitude": "-37.74529",
                    "geonameid": 3391957,
                    "population": 23052,
                    "latitude": "-9.54806"
                },
                {
                    "name": "Porto Calvo",
                    "longitude": "-35.37335",
                    "geonameid": 6320667,
                    "population": 25718,
                    "latitude": "-9.07061"
                },
                {
                    "name": "Porto Real do Colégio",
                    "longitude": "-36.72695",
                    "geonameid": 3452670,
                    "population": 19314,
                    "latitude": "-10.10538"
                },
                {
                    "name": "Porto de Pedras",
                    "longitude": "-35.39158",
                    "geonameid": 6320668,
                    "population": 8419,
                    "latitude": "-9.11562"
                },
                {
                    "name": "Poço das Trincheiras",
                    "longitude": "-37.31993",
                    "geonameid": 6324312,
                    "population": 13873,
                    "latitude": "-9.29255"
                },
                {
                    "name": "Pão de Açúcar",
                    "longitude": "-37.45431",
                    "geonameid": 3393171,
                    "population": 23809,
                    "latitude": "-9.68353"
                },
                {
                    "name": "Quebrangulo",
                    "longitude": "-36.49792",
                    "geonameid": 6320669,
                    "population": 11486,
                    "latitude": "-9.29229"
                },
                {
                    "name": "Rio Largo",
                    "longitude": "-35.9106",
                    "geonameid": 6320670,
                    "population": 68512,
                    "latitude": "-9.51392"
                },
                {
                    "name": "Roteiro",
                    "longitude": "-35.98311",
                    "geonameid": 6320671,
                    "population": 6656,
                    "latitude": "-9.85906"
                },
                {
                    "name": "Santa Luzia do Norte",
                    "longitude": "-35.82917",
                    "geonameid": 6320672,
                    "population": 6893,
                    "latitude": "-9.61082"
                },
                {
                    "name": "Santana do Ipanema",
                    "longitude": "-37.19403",
                    "geonameid": 3389383,
                    "population": 44949,
                    "latitude": "-9.34425"
                },
                {
                    "name": "Santana do Mundaú",
                    "longitude": "-36.22667",
                    "geonameid": 6320673,
                    "population": 10961,
                    "latitude": "-9.12425"
                },
                {
                    "name": "Satuba",
                    "longitude": "-35.84557",
                    "geonameid": 6320676,
                    "population": 14604,
                    "latitude": "-9.58529"
                },
                {
                    "name": "Senador Rui Palmeira",
                    "longitude": "-37.55968",
                    "geonameid": 6324314,
                    "population": 13047,
                    "latitude": "-9.33827"
                },
                {
                    "name": "São Brás",
                    "longitude": "-36.85043",
                    "geonameid": 3449334,
                    "population": 6720,
                    "latitude": "-10.12409"
                },
                {
                    "name": "São José da Laje",
                    "longitude": "-36.03386",
                    "geonameid": 6324197,
                    "population": 22689,
                    "latitude": "-8.97499"
                },
                {
                    "name": "São José da Tapera",
                    "longitude": "-37.49034",
                    "geonameid": 6324313,
                    "population": 30140,
                    "latitude": "-9.53272"
                },
                {
                    "name": "São Luís do Quitunde",
                    "longitude": "-35.57188",
                    "geonameid": 6320674,
                    "population": 32416,
                    "latitude": "-9.26284"
                },
                {
                    "name": "São Miguel dos Campos",
                    "longitude": "-36.11378",
                    "geonameid": 6324161,
                    "population": 54591,
                    "latitude": "-9.82885"
                },
                {
                    "name": "São Miguel dos Milagres",
                    "longitude": "-35.38419",
                    "geonameid": 6320675,
                    "population": 7170,
                    "latitude": "-9.25423"
                },
                {
                    "name": "São Sebastião",
                    "longitude": "-36.5528",
                    "geonameid": 6319072,
                    "population": 32007,
                    "latitude": "-9.96698"
                },
                {
                    "name": "Tanque d'Arca",
                    "longitude": "-36.40824",
                    "geonameid": 6320677,
                    "population": 6122,
                    "latitude": "-9.56069"
                },
                {
                    "name": "Taquarana",
                    "longitude": "-36.48781",
                    "geonameid": 6320678,
                    "population": 19020,
                    "latitude": "-9.59772"
                },
                {
                    "name": "Teotônio Vilela",
                    "longitude": "-36.43273",
                    "geonameid": 6320679,
                    "population": 41158,
                    "latitude": "-9.99012"
                },
                {
                    "name": "Traipu",
                    "longitude": "-36.97849",
                    "geonameid": 3386197,
                    "population": 25710,
                    "latitude": "-9.8924"
                },
                {
                    "name": "União dos Palmares",
                    "longitude": "-36.08182",
                    "geonameid": 6320680,
                    "population": 62401,
                    "latitude": "-9.13251"
                },
                {
                    "name": "Viçosa",
                    "longitude": "-36.32095",
                    "geonameid": 6320681,
                    "population": 25444,
                    "latitude": "-9.36022"
                },
                {
                    "name": "Água Branca",
                    "longitude": "-37.91917",
                    "geonameid": 3408207,
                    "population": 19376,
                    "latitude": "-9.26988"
                }
            ]
        },
        {
            "name": "Amapá",
            "longitude": "-52",
            "geonameid": 3407762,
            "population": 668689,
            "latitude": "1",
            "shortname": "AP",
            "cities": [
                {
                    "name": "Amapá",
                    "longitude": "-50.84374",
                    "geonameid": 6319493,
                    "population": 8005,
                    "latitude": "1.85706"
                },
                {
                    "name": "Calçoene",
                    "longitude": "-51.45285",
                    "geonameid": 6319494,
                    "population": 8964,
                    "latitude": "2.36098"
                },
                {
                    "name": "Cutias",
                    "longitude": "-50.52041",
                    "geonameid": 6319495,
                    "population": 4634,
                    "latitude": "0.99713"
                },
                {
                    "name": "Ferreira Gomes",
                    "longitude": "-51.35442",
                    "geonameid": 6324186,
                    "population": 5772,
                    "latitude": "0.91012"
                },
                {
                    "name": "Itaubal",
                    "longitude": "-50.67833",
                    "geonameid": 6319496,
                    "population": 4267,
                    "latitude": "0.57732"
                },
                {
                    "name": "Laranjal do Jari",
                    "longitude": "-53.22949",
                    "geonameid": 6324188,
                    "population": 39805,
                    "latitude": "0.93828"
                },
                {
                    "name": "Macapá",
                    "longitude": "-50.96274",
                    "geonameid": 6319498,
                    "population": 397913,
                    "latitude": "0.58767"
                },
                {
                    "name": "Mazagão",
                    "longitude": "-52.11627",
                    "geonameid": 6319499,
                    "population": 17030,
                    "latitude": "0.03993"
                },
                {
                    "name": "Oiapoque",
                    "longitude": "-52.16963",
                    "geonameid": 6319500,
                    "population": 20426,
                    "latitude": "2.70795"
                },
                {
                    "name": "Pedra Branca do Amaparí",
                    "longitude": "-52.40118",
                    "geonameid": 6324185,
                    "population": 10773,
                    "latitude": "1.14843"
                },
                {
                    "name": "Porto Grande",
                    "longitude": "-51.71181",
                    "geonameid": 6324187,
                    "population": 16825,
                    "latitude": "0.56553"
                },
                {
                    "name": "Pracuúba",
                    "longitude": "-51.2449",
                    "geonameid": 6319501,
                    "population": 3783,
                    "latitude": "1.67076"
                },
                {
                    "name": "Santana",
                    "longitude": "-51.38835",
                    "geonameid": 6319502,
                    "population": 101203,
                    "latitude": "0.18128"
                },
                {
                    "name": "Serra do Navio",
                    "longitude": "-52.28195",
                    "geonameid": 6324184,
                    "population": 4409,
                    "latitude": "1.65803"
                },
                {
                    "name": "Tartarugalzinho",
                    "longitude": "-51.10973",
                    "geonameid": 6319503,
                    "population": 12435,
                    "latitude": "1.263"
                },
                {
                    "name": "Vitória do Jari",
                    "longitude": "-52.03443",
                    "geonameid": 6319497,
                    "population": 12445,
                    "latitude": "-0.95653"
                }
            ]
        },
        {
            "name": "Amazonas",
            "longitude": "-64.5",
            "geonameid": 3665361,
            "population": 3480937,
            "latitude": "-3.75",
            "shortname": "AM",
            "cities": [
                {
                    "name": "Alvarães",
                    "longitude": "-64.95117",
                    "geonameid": 6319294,
                    "population": 14080,
                    "latitude": "-3.20085"
                },
                {
                    "name": "Amaturá",
                    "longitude": "-68.22698",
                    "geonameid": 6319295,
                    "population": 9657,
                    "latitude": "-3.38926"
                },
                {
                    "name": "Anamã",
                    "longitude": "-61.71689",
                    "geonameid": 6319296,
                    "population": 10193,
                    "latitude": "-3.4799"
                },
                {
                    "name": "Anori",
                    "longitude": "-62.15564",
                    "geonameid": 6319297,
                    "population": 16289,
                    "latitude": "-4.21324"
                },
                {
                    "name": "Apuí",
                    "longitude": "-59.34104",
                    "geonameid": 6319298,
                    "population": 18059,
                    "latitude": "-7.78922"
                },
                {
                    "name": "Atalaia do Norte",
                    "longitude": "-71.82776",
                    "geonameid": 6319299,
                    "population": 15149,
                    "latitude": "-5.66448"
                },
                {
                    "name": "Autazes",
                    "longitude": "-59.68136",
                    "geonameid": 6319300,
                    "population": 31876,
                    "latitude": "-3.87303"
                },
                {
                    "name": "Barcellos",
                    "longitude": "-63.53706",
                    "geonameid": 6319301,
                    "population": 25715,
                    "latitude": "-0.39287"
                },
                {
                    "name": "Barreirinha",
                    "longitude": "-57.16619",
                    "geonameid": 6319302,
                    "population": 27361,
                    "latitude": "-3.06562"
                },
                {
                    "name": "Benjamin Constant",
                    "longitude": "-70.40685",
                    "geonameid": 6319303,
                    "population": 33391,
                    "latitude": "-5.64837"
                },
                {
                    "name": "Beruri",
                    "longitude": "-61.75126",
                    "geonameid": 6319304,
                    "population": 15500,
                    "latitude": "-4.34371"
                },
                {
                    "name": "Boa Vista do Ramos",
                    "longitude": "-57.90517",
                    "geonameid": 6319305,
                    "population": 14921,
                    "latitude": "-3.15779"
                },
                {
                    "name": "Boca do Acre",
                    "longitude": "-68.03585",
                    "geonameid": 6319306,
                    "population": 29880,
                    "latitude": "-8.55417"
                },
                {
                    "name": "Borba",
                    "longitude": "-59.30536",
                    "geonameid": 6319307,
                    "population": 34452,
                    "latitude": "-5.11242"
                },
                {
                    "name": "Caapiranga",
                    "longitude": "-61.74406",
                    "geonameid": 6319308,
                    "population": 10909,
                    "latitude": "-3.12981"
                },
                {
                    "name": "Canutama",
                    "longitude": "-64.12937",
                    "geonameid": 6324275,
                    "population": 12727,
                    "latitude": "-7.58969"
                },
                {
                    "name": "Carauari",
                    "longitude": "-67.35779",
                    "geonameid": 6319309,
                    "population": 25700,
                    "latitude": "-5.1159"
                },
                {
                    "name": "Careiro",
                    "longitude": "-60.3479",
                    "geonameid": 6319310,
                    "population": 32631,
                    "latitude": "-3.78706"
                },
                {
                    "name": "Careiro da Várzea",
                    "longitude": "-59.65526",
                    "geonameid": 6319311,
                    "population": 23963,
                    "latitude": "-3.35155"
                },
                {
                    "name": "Coari",
                    "longitude": "-64.15114",
                    "geonameid": 6324179,
                    "population": 75909,
                    "latitude": "-4.05402"
                },
                {
                    "name": "Codajás",
                    "longitude": "-63.14732",
                    "geonameid": 6319312,
                    "population": 23119,
                    "latitude": "-3.16263"
                },
                {
                    "name": "Eirunepé",
                    "longitude": "-70.41554",
                    "geonameid": 6319313,
                    "population": 30666,
                    "latitude": "-7.15849"
                },
                {
                    "name": "Envira",
                    "longitude": "-70.14077",
                    "geonameid": 6319314,
                    "population": 16328,
                    "latitude": "-7.64212"
                },
                {
                    "name": "Fonte Boa",
                    "longitude": "-66.26623",
                    "geonameid": 6319315,
                    "population": 22659,
                    "latitude": "-2.49591"
                },
                {
                    "name": "Guajará",
                    "longitude": "-72.71513",
                    "geonameid": 6319316,
                    "population": 14074,
                    "latitude": "-7.13653"
                },
                {
                    "name": "Humaitá",
                    "longitude": "-62.32481",
                    "geonameid": 6319317,
                    "population": 44116,
                    "latitude": "-7.43866"
                },
                {
                    "name": "Ipixuna",
                    "longitude": "-71.3759",
                    "geonameid": 6319318,
                    "population": 22199,
                    "latitude": "-7.1191"
                },
                {
                    "name": "Iranduba",
                    "longitude": "-60.44644",
                    "geonameid": 6319319,
                    "population": 40735,
                    "latitude": "-3.10145"
                },
                {
                    "name": "Itacoatiara",
                    "longitude": "-58.43353",
                    "geonameid": 6319320,
                    "population": 86840,
                    "latitude": "-3.13435"
                },
                {
                    "name": "Itamarati",
                    "longitude": "-68.03926",
                    "geonameid": 6319321,
                    "population": 8040,
                    "latitude": "-6.76472"
                },
                {
                    "name": "Itapiranga",
                    "longitude": "-58.5573",
                    "geonameid": 6319322,
                    "population": 8200,
                    "latitude": "-2.516"
                },
                {
                    "name": "Japurá",
                    "longitude": "-68.24526",
                    "geonameid": 6319323,
                    "population": 7289,
                    "latitude": "-1.55349"
                },
                {
                    "name": "Juruá",
                    "longitude": "-66.24211",
                    "geonameid": 6319324,
                    "population": 10822,
                    "latitude": "-3.27526"
                },
                {
                    "name": "Jutaí",
                    "longitude": "-68.28027",
                    "geonameid": 6319325,
                    "population": 17964,
                    "latitude": "-4.65485"
                },
                {
                    "name": "Lábrea",
                    "longitude": "-66.075",
                    "geonameid": 3663683,
                    "population": 37574,
                    "latitude": "-8.18437"
                },
                {
                    "name": "Manacapuru",
                    "longitude": "-61.00788",
                    "geonameid": 6319326,
                    "population": 85144,
                    "latitude": "-3.24746"
                },
                {
                    "name": "Manaquiri",
                    "longitude": "-60.70718",
                    "geonameid": 6319327,
                    "population": 22807,
                    "latitude": "-3.79048"
                },
                {
                    "name": "Manaus",
                    "longitude": "-60.01282",
                    "geonameid": 6319328,
                    "population": 1802525,
                    "latitude": "-3.04361"
                },
                {
                    "name": "Manicoré",
                    "longitude": "-61.55696",
                    "geonameid": 6319329,
                    "population": 47011,
                    "latitude": "-7.06636"
                },
                {
                    "name": "Maraã",
                    "longitude": "-64.80423",
                    "geonameid": 6319330,
                    "population": 17364,
                    "latitude": "-2.63792"
                },
                {
                    "name": "Maués",
                    "longitude": "-58.30285",
                    "geonameid": 6319331,
                    "population": 51847,
                    "latitude": "-5.06331"
                },
                {
                    "name": "Nhamundá",
                    "longitude": "-57.65625",
                    "geonameid": 6319332,
                    "population": 18278,
                    "latitude": "-1.6805"
                },
                {
                    "name": "Nova Olinda do Norte",
                    "longitude": "-58.59745",
                    "geonameid": 6319333,
                    "population": 30761,
                    "latitude": "-3.9464"
                },
                {
                    "name": "Novo Airão",
                    "longitude": "-61.78513",
                    "geonameid": 6319334,
                    "population": 14780,
                    "latitude": "-1.98386"
                },
                {
                    "name": "Novo Aripuanã",
                    "longitude": "-60.63017",
                    "geonameid": 6319335,
                    "population": 21389,
                    "latitude": "-7.00105"
                },
                {
                    "name": "Parintins",
                    "longitude": "-56.93412",
                    "geonameid": 6319336,
                    "population": 102066,
                    "latitude": "-2.66345"
                },
                {
                    "name": "Pauini",
                    "longitude": "-68.14223",
                    "geonameid": 6319337,
                    "population": 18153,
                    "latitude": "-7.68931"
                },
                {
                    "name": "Presidente Figueiredo",
                    "longitude": "-59.98317",
                    "geonameid": 6319338,
                    "population": 27121,
                    "latitude": "-1.28344"
                },
                {
                    "name": "Rio Preto da Eva",
                    "longitude": "-59.60783",
                    "geonameid": 6319339,
                    "population": 25758,
                    "latitude": "-2.49292"
                },
                {
                    "name": "Santa Isabel do Rio Negro",
                    "longitude": "-65.55119",
                    "geonameid": 6319340,
                    "population": 18133,
                    "latitude": "-0.25484"
                },
                {
                    "name": "Santo Antônio do Içá",
                    "longitude": "-68.75919",
                    "geonameid": 6318997,
                    "population": 24487,
                    "latitude": "-3.08995"
                },
                {
                    "name": "Silves",
                    "longitude": "-58.62751",
                    "geonameid": 6319344,
                    "population": 8445,
                    "latitude": "-2.76846"
                },
                {
                    "name": "São Gabriel da Cachoeira",
                    "longitude": "-68.03239",
                    "geonameid": 6319341,
                    "population": 37300,
                    "latitude": "0.24042"
                },
                {
                    "name": "São Paulo de Olivença",
                    "longitude": "-69.58141",
                    "geonameid": 6319342,
                    "population": 31426,
                    "latitude": "-4.65086"
                },
                {
                    "name": "São Sebastião do Uatumã",
                    "longitude": "-58.74216",
                    "geonameid": 6319343,
                    "population": 10688,
                    "latitude": "-1.93197"
                },
                {
                    "name": "Tabatinga",
                    "longitude": "-69.60265",
                    "geonameid": 6319345,
                    "population": 52279,
                    "latitude": "-3.96298"
                },
                {
                    "name": "Tapauá",
                    "longitude": "-65.69985",
                    "geonameid": 6324276,
                    "population": 19077,
                    "latitude": "-6.21423"
                },
                {
                    "name": "Tefé",
                    "longitude": "-65.60446",
                    "geonameid": 6319346,
                    "population": 61399,
                    "latitude": "-4.52227"
                },
                {
                    "name": "Tonantins",
                    "longitude": "-67.47282",
                    "geonameid": 6319347,
                    "population": 17056,
                    "latitude": "-2.57612"
                },
                {
                    "name": "Uarini",
                    "longitude": "-65.42036",
                    "geonameid": 6319348,
                    "population": 11906,
                    "latitude": "-3.14736"
                },
                {
                    "name": "Urucará",
                    "longitude": "-58.80434",
                    "geonameid": 6319349,
                    "population": 17019,
                    "latitude": "-1.19284"
                },
                {
                    "name": "Urucurituba",
                    "longitude": "-57.75009",
                    "geonameid": 6319350,
                    "population": 17731,
                    "latitude": "-2.83268"
                }
            ]
        },
        {
            "name": "Bahia",
            "longitude": "-42",
            "geonameid": 3471168,
            "population": 14175341,
            "latitude": "-12",
            "shortname": "BA",
            "cities": [
                {
                    "name": "Abaré",
                    "longitude": "-39.27062",
                    "geonameid": 6320722,
                    "population": 17072,
                    "latitude": "-8.80961"
                },
                {
                    "name": "Abaíra",
                    "longitude": "-41.69759",
                    "geonameid": 6320721,
                    "population": 8324,
                    "latitude": "-13.32129"
                },
                {
                    "name": "Acajutiba",
                    "longitude": "-38.03594",
                    "geonameid": 6320723,
                    "population": 14830,
                    "latitude": "-11.60682"
                },
                {
                    "name": "Adustina",
                    "longitude": "-37.98446",
                    "geonameid": 6320724,
                    "population": 15706,
                    "latitude": "-10.48227"
                },
                {
                    "name": "Aiquara",
                    "longitude": "-39.87641",
                    "geonameid": 6320727,
                    "population": 4602,
                    "latitude": "-14.11135"
                },
                {
                    "name": "Alagoinhas",
                    "longitude": "-38.36146",
                    "geonameid": 3472764,
                    "population": 142160,
                    "latitude": "-12.0058"
                },
                {
                    "name": "Alcobaça",
                    "longitude": "-39.37401",
                    "geonameid": 6320728,
                    "population": 21319,
                    "latitude": "-17.46365"
                },
                {
                    "name": "Almadina",
                    "longitude": "-39.69066",
                    "geonameid": 6320729,
                    "population": 6360,
                    "latitude": "-14.67608"
                },
                {
                    "name": "Amargosa",
                    "longitude": "-39.6072",
                    "geonameid": 6320730,
                    "population": 34340,
                    "latitude": "-13.0497"
                },
                {
                    "name": "Amélia Rodrigues",
                    "longitude": "-38.75153",
                    "geonameid": 6320731,
                    "population": 25190,
                    "latitude": "-12.38975"
                },
                {
                    "name": "América Dourada",
                    "longitude": "-41.47335",
                    "geonameid": 6320732,
                    "population": 15952,
                    "latitude": "-11.4694"
                },
                {
                    "name": "Anagé",
                    "longitude": "-41.14703",
                    "geonameid": 6320733,
                    "population": 25500,
                    "latitude": "-14.66168"
                },
                {
                    "name": "Andaraí",
                    "longitude": "-41.27679",
                    "geonameid": 6320734,
                    "population": 13948,
                    "latitude": "-12.84167"
                },
                {
                    "name": "Andorinha",
                    "longitude": "-39.86387",
                    "geonameid": 6320735,
                    "population": 14417,
                    "latitude": "-10.22216"
                },
                {
                    "name": "Angical",
                    "longitude": "-44.7498",
                    "geonameid": 6320736,
                    "population": 14073,
                    "latitude": "-11.9628"
                },
                {
                    "name": "Anguera",
                    "longitude": "-39.21384",
                    "geonameid": 6320737,
                    "population": 10248,
                    "latitude": "-12.18221"
                },
                {
                    "name": "Antas",
                    "longitude": "-38.30341",
                    "geonameid": 6320738,
                    "population": 17078,
                    "latitude": "-10.42138"
                },
                {
                    "name": "Antônio Cardoso",
                    "longitude": "-39.14549",
                    "geonameid": 6320739,
                    "population": 11548,
                    "latitude": "-12.38641"
                },
                {
                    "name": "Antônio Gonçalves",
                    "longitude": "-40.40933",
                    "geonameid": 6320740,
                    "population": 11019,
                    "latitude": "-10.62282"
                },
                {
                    "name": "Aporá",
                    "longitude": "-38.22784",
                    "geonameid": 6320741,
                    "population": 17720,
                    "latitude": "-11.75439"
                },
                {
                    "name": "Apuarema",
                    "longitude": "-39.73444",
                    "geonameid": 6320742,
                    "population": 7463,
                    "latitude": "-13.83005"
                },
                {
                    "name": "Aracatu",
                    "longitude": "-41.36331",
                    "geonameid": 6320743,
                    "population": 13732,
                    "latitude": "-14.39011"
                },
                {
                    "name": "Araci",
                    "longitude": "-39.07003",
                    "geonameid": 6320745,
                    "population": 51636,
                    "latitude": "-11.13564"
                },
                {
                    "name": "Aramari",
                    "longitude": "-38.55762",
                    "geonameid": 6324321,
                    "population": 10039,
                    "latitude": "-12.04618"
                },
                {
                    "name": "Arataca",
                    "longitude": "-39.42481",
                    "geonameid": 6320746,
                    "population": 10403,
                    "latitude": "-15.24607"
                },
                {
                    "name": "Aratuípe",
                    "longitude": "-39.08259",
                    "geonameid": 6320747,
                    "population": 8590,
                    "latitude": "-13.09363"
                },
                {
                    "name": "Araças",
                    "longitude": "-38.17233",
                    "geonameid": 6320744,
                    "population": 11569,
                    "latitude": "-12.14681"
                },
                {
                    "name": "Aurelino Leal",
                    "longitude": "-39.47961",
                    "geonameid": 6320748,
                    "population": 13599,
                    "latitude": "-14.3631"
                },
                {
                    "name": "Baianópolis",
                    "longitude": "-44.53105",
                    "geonameid": 6320749,
                    "population": 13863,
                    "latitude": "-12.48331"
                },
                {
                    "name": "Baixa Grande",
                    "longitude": "-40.17993",
                    "geonameid": 6320750,
                    "population": 20069,
                    "latitude": "-11.97735"
                },
                {
                    "name": "Banzaê",
                    "longitude": "-38.62688",
                    "geonameid": 6320751,
                    "population": 11811,
                    "latitude": "-10.61578"
                },
                {
                    "name": "Barra",
                    "longitude": "-43.4688",
                    "geonameid": 6320752,
                    "population": 49342,
                    "latitude": "-11.31829"
                },
                {
                    "name": "Barra da Estiva",
                    "longitude": "-41.1346",
                    "geonameid": 6320753,
                    "population": 21190,
                    "latitude": "-13.64622"
                },
                {
                    "name": "Barra do Choça",
                    "longitude": "-40.66731",
                    "geonameid": 6320754,
                    "population": 34788,
                    "latitude": "-15.01024"
                },
                {
                    "name": "Barra do Mendes",
                    "longitude": "-42.03542",
                    "geonameid": 6324198,
                    "population": 13997,
                    "latitude": "-12.16094"
                },
                {
                    "name": "Barra do Rocha",
                    "longitude": "-39.59068",
                    "geonameid": 6320755,
                    "population": 6336,
                    "latitude": "-14.0751"
                },
                {
                    "name": "Barreiras",
                    "longitude": "-45.49239",
                    "geonameid": 3470579,
                    "population": 137428,
                    "latitude": "-11.93334"
                },
                {
                    "name": "Barro Alto",
                    "longitude": "-41.91323",
                    "geonameid": 6320756,
                    "population": 13626,
                    "latitude": "-11.77394"
                },
                {
                    "name": "Barro Preto",
                    "longitude": "-39.40711",
                    "geonameid": 6320757,
                    "population": 6453,
                    "latitude": "-14.75795"
                },
                {
                    "name": "Barrocas",
                    "longitude": "-39.12267",
                    "geonameid": 6319220,
                    "population": 14189,
                    "latitude": "-11.6019"
                },
                {
                    "name": "Belmonte",
                    "longitude": "-39.32266",
                    "geonameid": 6319073,
                    "population": 21838,
                    "latitude": "-15.89158"
                },
                {
                    "name": "Belo Campo",
                    "longitude": "-41.22671",
                    "geonameid": 6320758,
                    "population": 16026,
                    "latitude": "-14.87419"
                },
                {
                    "name": "Biritinga",
                    "longitude": "-38.78931",
                    "geonameid": 6320759,
                    "population": 14833,
                    "latitude": "-11.67075"
                },
                {
                    "name": "Boa Nova",
                    "longitude": "-40.22378",
                    "geonameid": 6320760,
                    "population": 15409,
                    "latitude": "-14.36412"
                },
                {
                    "name": "Boa Vista do Tupim",
                    "longitude": "-40.62823",
                    "geonameid": 6320761,
                    "population": 18000,
                    "latitude": "-12.87313"
                },
                {
                    "name": "Bom Jesus da Lapa",
                    "longitude": "-43.29624",
                    "geonameid": 6320762,
                    "population": 63508,
                    "latitude": "-13.20853"
                },
                {
                    "name": "Bom Jesus da Serra",
                    "longitude": "-40.53982",
                    "geonameid": 6320763,
                    "population": 10123,
                    "latitude": "-14.3838"
                },
                {
                    "name": "Boninal",
                    "longitude": "-41.68338",
                    "geonameid": 6320764,
                    "population": 13695,
                    "latitude": "-12.80363"
                },
                {
                    "name": "Bonito",
                    "longitude": "-41.31779",
                    "geonameid": 6320765,
                    "population": 14851,
                    "latitude": "-12.00488"
                },
                {
                    "name": "Boquira",
                    "longitude": "-42.64175",
                    "geonameid": 6320766,
                    "population": 22042,
                    "latitude": "-12.73943"
                },
                {
                    "name": "Botuporã",
                    "longitude": "-42.41083",
                    "geonameid": 6320767,
                    "population": 11162,
                    "latitude": "-13.25071"
                },
                {
                    "name": "Brejolândia",
                    "longitude": "-43.92822",
                    "geonameid": 6320768,
                    "population": 11127,
                    "latitude": "-12.41237"
                },
                {
                    "name": "Brejões",
                    "longitude": "-39.82099",
                    "geonameid": 6319074,
                    "population": 14282,
                    "latitude": "-13.07059"
                },
                {
                    "name": "Brotas de Macaúbas",
                    "longitude": "-42.51108",
                    "geonameid": 6320769,
                    "population": 10718,
                    "latitude": "-12.10605"
                },
                {
                    "name": "Brumado",
                    "longitude": "-41.60375",
                    "geonameid": 6320770,
                    "population": 64550,
                    "latitude": "-14.15265"
                },
                {
                    "name": "Buerarema",
                    "longitude": "-39.30588",
                    "geonameid": 6320771,
                    "population": 18622,
                    "latitude": "-14.99067"
                },
                {
                    "name": "Buritirama",
                    "longitude": "-43.68863",
                    "geonameid": 6320772,
                    "population": 19589,
                    "latitude": "-10.57081"
                },
                {
                    "name": "Caatiba",
                    "longitude": "-40.14586",
                    "geonameid": 6320773,
                    "population": 11448,
                    "latitude": "-15.04847"
                },
                {
                    "name": "Cabaceiras do Paraguaçu",
                    "longitude": "-39.19596",
                    "geonameid": 6320774,
                    "population": 17327,
                    "latitude": "-12.55423"
                },
                {
                    "name": "Cachoeira",
                    "longitude": "-38.97091",
                    "geonameid": 6320775,
                    "population": 32035,
                    "latitude": "-12.58461"
                },
                {
                    "name": "Caculé",
                    "longitude": "-42.41516",
                    "geonameid": 6320776,
                    "population": 22231,
                    "latitude": "-14.38829"
                },
                {
                    "name": "Caetanos",
                    "longitude": "-41.01004",
                    "geonameid": 6320778,
                    "population": 13666,
                    "latitude": "-14.29234"
                },
                {
                    "name": "Caetité",
                    "longitude": "-42.49334",
                    "geonameid": 6320779,
                    "population": 47524,
                    "latitude": "-13.97883"
                },
                {
                    "name": "Cafarnaum",
                    "longitude": "-41.50727",
                    "geonameid": 6320780,
                    "population": 17212,
                    "latitude": "-11.74558"
                },
                {
                    "name": "Cairu",
                    "longitude": "-38.94814",
                    "geonameid": 6320781,
                    "population": 15366,
                    "latitude": "-13.52662"
                },
                {
                    "name": "Caldeirão Grande",
                    "longitude": "-40.29515",
                    "geonameid": 6320782,
                    "population": 12485,
                    "latitude": "-11.04347"
                },
                {
                    "name": "Camacan",
                    "longitude": "-39.50818",
                    "geonameid": 6320783,
                    "population": 31468,
                    "latitude": "-15.42769"
                },
                {
                    "name": "Camamu",
                    "longitude": "-39.12231",
                    "geonameid": 6320785,
                    "population": 35160,
                    "latitude": "-13.94073"
                },
                {
                    "name": "Camaçari",
                    "longitude": "-38.20623",
                    "geonameid": 6320784,
                    "population": 242984,
                    "latitude": "-12.66583"
                },
                {
                    "name": "Campo Alegre de Lourdes",
                    "longitude": "-42.98275",
                    "geonameid": 6320786,
                    "population": 28091,
                    "latitude": "-9.50097"
                },
                {
                    "name": "Campo Formoso",
                    "longitude": "-40.81082",
                    "geonameid": 6320787,
                    "population": 66638,
                    "latitude": "-10.31007"
                },
                {
                    "name": "Canarana",
                    "longitude": "-41.73764",
                    "geonameid": 6320789,
                    "population": 24055,
                    "latitude": "-11.66778"
                },
                {
                    "name": "Canavieiras",
                    "longitude": "-39.17092",
                    "geonameid": 6320790,
                    "population": 32331,
                    "latitude": "-15.64831"
                },
                {
                    "name": "Candeal",
                    "longitude": "-39.2039",
                    "geonameid": 6320791,
                    "population": 8895,
                    "latitude": "-11.89504"
                },
                {
                    "name": "Candeias",
                    "longitude": "-38.487",
                    "geonameid": 3467552,
                    "population": 83077,
                    "latitude": "-12.65569"
                },
                {
                    "name": "Candiba",
                    "longitude": "-42.87386",
                    "geonameid": 6320792,
                    "population": 13205,
                    "latitude": "-14.46972"
                },
                {
                    "name": "Cansanção",
                    "longitude": "-39.47418",
                    "geonameid": 6320794,
                    "population": 32923,
                    "latitude": "-10.73105"
                },
                {
                    "name": "Canudos",
                    "longitude": "-39.14723",
                    "geonameid": 6320795,
                    "population": 15755,
                    "latitude": "-9.87981"
                },
                {
                    "name": "Canápolis",
                    "longitude": "-44.25095",
                    "geonameid": 6320788,
                    "population": 9382,
                    "latitude": "-13.12516"
                },
                {
                    "name": "Capela do Alto Alegre",
                    "longitude": "-39.83227",
                    "geonameid": 6320796,
                    "population": 11527,
                    "latitude": "-11.61838"
                },
                {
                    "name": "Capim Grosso",
                    "longitude": "-39.95572",
                    "geonameid": 6320797,
                    "population": 26529,
                    "latitude": "-11.29423"
                },
                {
                    "name": "Caravelas",
                    "longitude": "-39.35989",
                    "geonameid": 6320799,
                    "population": 21437,
                    "latitude": "-17.65842"
                },
                {
                    "name": "Caraíbas",
                    "longitude": "-41.25763",
                    "geonameid": 6320798,
                    "population": 10225,
                    "latitude": "-14.60631"
                },
                {
                    "name": "Cardeal da Silva",
                    "longitude": "-37.92468",
                    "geonameid": 6320800,
                    "population": 8271,
                    "latitude": "-11.99798"
                },
                {
                    "name": "Carinhanha",
                    "longitude": "-43.84712",
                    "geonameid": 6320801,
                    "population": 28378,
                    "latitude": "-14.21387"
                },
                {
                    "name": "Casa Nova",
                    "longitude": "-41.15736",
                    "geonameid": 6320802,
                    "population": 64944,
                    "latitude": "-9.10439"
                },
                {
                    "name": "Castro Alves",
                    "longitude": "-39.37691",
                    "geonameid": 6320803,
                    "population": 25419,
                    "latitude": "-12.74937"
                },
                {
                    "name": "Catolândia",
                    "longitude": "-44.67528",
                    "geonameid": 6320804,
                    "population": 2609,
                    "latitude": "-12.29613"
                },
                {
                    "name": "Catu",
                    "longitude": "-38.40049",
                    "geonameid": 6320805,
                    "population": 51075,
                    "latitude": "-12.3776"
                },
                {
                    "name": "Caturama",
                    "longitude": "-42.3025",
                    "geonameid": 6320806,
                    "population": 8847,
                    "latitude": "-13.18601"
                },
                {
                    "name": "Caém",
                    "longitude": "-40.29142",
                    "geonameid": 6320777,
                    "population": 10376,
                    "latitude": "-11.14182"
                },
                {
                    "name": "Central",
                    "longitude": "-42.08146",
                    "geonameid": 6320807,
                    "population": 17027,
                    "latitude": "-11.15424"
                },
                {
                    "name": "Chorrochó",
                    "longitude": "-39.15652",
                    "geonameid": 6324322,
                    "population": 10734,
                    "latitude": "-9.3055"
                },
                {
                    "name": "Cipó",
                    "longitude": "-38.50952",
                    "geonameid": 6320809,
                    "population": 15764,
                    "latitude": "-11.11045"
                },
                {
                    "name": "Coaraci",
                    "longitude": "-39.59376",
                    "geonameid": 6320810,
                    "population": 20964,
                    "latitude": "-14.64492"
                },
                {
                    "name": "Cocos",
                    "longitude": "-45.2796",
                    "geonameid": 6320811,
                    "population": 18182,
                    "latitude": "-14.59438"
                },
                {
                    "name": "Conceição da Feira",
                    "longitude": "-38.99467",
                    "geonameid": 6320812,
                    "population": 20408,
                    "latitude": "-12.50687"
                },
                {
                    "name": "Conceição do Almeida",
                    "longitude": "-39.24093",
                    "geonameid": 6320813,
                    "population": 17895,
                    "latitude": "-12.85503"
                },
                {
                    "name": "Conceição do Coité",
                    "longitude": "-39.19112",
                    "geonameid": 6320814,
                    "population": 62042,
                    "latitude": "-11.63206"
                },
                {
                    "name": "Conceição do Jacuípe",
                    "longitude": "-38.75736",
                    "geonameid": 6320815,
                    "population": 30123,
                    "latitude": "-12.33229"
                },
                {
                    "name": "Conde",
                    "longitude": "-37.6482",
                    "geonameid": 6320816,
                    "population": 23594,
                    "latitude": "-11.80333"
                },
                {
                    "name": "Condeúba",
                    "longitude": "-42.00693",
                    "geonameid": 6320817,
                    "population": 16888,
                    "latitude": "-14.93275"
                },
                {
                    "name": "Contendas do Sincorá",
                    "longitude": "-41.05002",
                    "geonameid": 6320818,
                    "population": 4663,
                    "latitude": "-13.79599"
                },
                {
                    "name": "Coração de Maria",
                    "longitude": "-38.78243",
                    "geonameid": 6320819,
                    "population": 22431,
                    "latitude": "-12.24274"
                },
                {
                    "name": "Cordeiros",
                    "longitude": "-41.89749",
                    "geonameid": 6320820,
                    "population": 8169,
                    "latitude": "-14.99846"
                },
                {
                    "name": "Coribe",
                    "longitude": "-44.43538",
                    "geonameid": 6320821,
                    "population": 14301,
                    "latitude": "-13.72337"
                },
                {
                    "name": "Coronel João Sá",
                    "longitude": "-37.94281",
                    "geonameid": 6320822,
                    "population": 17066,
                    "latitude": "-10.38878"
                },
                {
                    "name": "Correntina",
                    "longitude": "-45.1319",
                    "geonameid": 6320823,
                    "population": 31259,
                    "latitude": "-13.28985"
                },
                {
                    "name": "Cotegipe",
                    "longitude": "-44.17",
                    "geonameid": 6320824,
                    "population": 13638,
                    "latitude": "-11.58844"
                },
                {
                    "name": "Cravolândia",
                    "longitude": "-39.75493",
                    "geonameid": 6320825,
                    "population": 5042,
                    "latitude": "-13.47018"
                },
                {
                    "name": "Cristópolis",
                    "longitude": "-44.24987",
                    "geonameid": 6320827,
                    "population": 13280,
                    "latitude": "-12.21789"
                },
                {
                    "name": "Crisópolis",
                    "longitude": "-38.13933",
                    "geonameid": 6320826,
                    "population": 20056,
                    "latitude": "-11.45532"
                },
                {
                    "name": "Cruz das Almas",
                    "longitude": "-39.11439",
                    "geonameid": 6320828,
                    "population": 58584,
                    "latitude": "-12.67027"
                },
                {
                    "name": "Curaçá",
                    "longitude": "-39.66849",
                    "geonameid": 6320829,
                    "population": 32165,
                    "latitude": "-9.13458"
                },
                {
                    "name": "Cândido Sales",
                    "longitude": "-41.16353",
                    "geonameid": 6320793,
                    "population": 27916,
                    "latitude": "-15.46082"
                },
                {
                    "name": "Cícero Dantas",
                    "longitude": "-38.42136",
                    "geonameid": 6320808,
                    "population": 32304,
                    "latitude": "-10.53881"
                },
                {
                    "name": "Dias d'Ávila",
                    "longitude": "-38.33717",
                    "geonameid": 6319075,
                    "population": 66373,
                    "latitude": "-12.60625"
                },
                {
                    "name": "Dom Basílio",
                    "longitude": "-41.70877",
                    "geonameid": 6319076,
                    "population": 11355,
                    "latitude": "-13.79717"
                },
                {
                    "name": "Dom Macedo Costa",
                    "longitude": "-39.14621",
                    "geonameid": 6320831,
                    "population": 3873,
                    "latitude": "-12.93379"
                },
                {
                    "name": "Dário Meira",
                    "longitude": "-39.95935",
                    "geonameid": 6320830,
                    "population": 12841,
                    "latitude": "-14.4234"
                },
                {
                    "name": "Elísio Medrado",
                    "longitude": "-39.50579",
                    "geonameid": 6320832,
                    "population": 7952,
                    "latitude": "-12.95431"
                },
                {
                    "name": "Encruzilhada",
                    "longitude": "-40.90789",
                    "geonameid": 6320833,
                    "population": 23786,
                    "latitude": "-15.56839"
                },
                {
                    "name": "Entre Rios",
                    "longitude": "-38.0299",
                    "geonameid": 6320834,
                    "population": 39883,
                    "latitude": "-12.06972"
                },
                {
                    "name": "Esplanada",
                    "longitude": "-37.89356",
                    "geonameid": 6320835,
                    "population": 33278,
                    "latitude": "-11.95469"
                },
                {
                    "name": "Euclides da Cunha",
                    "longitude": "-39.03374",
                    "geonameid": 6320836,
                    "population": 56312,
                    "latitude": "-10.40511"
                },
                {
                    "name": "Eunápolis",
                    "longitude": "-39.67022",
                    "geonameid": 6320837,
                    "population": 100246,
                    "latitude": "-16.31219"
                },
                {
                    "name": "Feira da Mata",
                    "longitude": "-44.25281",
                    "geonameid": 6320839,
                    "population": 6179,
                    "latitude": "-14.13203"
                },
                {
                    "name": "Feira de Santana",
                    "longitude": "-39.06563",
                    "geonameid": 6320840,
                    "population": 556756,
                    "latitude": "-12.23366"
                },
                {
                    "name": "Filadélfia",
                    "longitude": "-40.20555",
                    "geonameid": 6320841,
                    "population": 16749,
                    "latitude": "-10.76635"
                },
                {
                    "name": "Firmino Alves",
                    "longitude": "-39.91192",
                    "geonameid": 6320842,
                    "population": 5385,
                    "latitude": "-14.9136"
                },
                {
                    "name": "Floresta Azul",
                    "longitude": "-39.75503",
                    "geonameid": 6320843,
                    "population": 10660,
                    "latitude": "-14.8445"
                },
                {
                    "name": "Formosa do Rio Preto",
                    "longitude": "-45.91214",
                    "geonameid": 6320844,
                    "population": 22534,
                    "latitude": "-10.88861"
                },
                {
                    "name": "Fátima",
                    "longitude": "-38.22367",
                    "geonameid": 6320838,
                    "population": 17652,
                    "latitude": "-10.546"
                },
                {
                    "name": "Gandu",
                    "longitude": "-39.44745",
                    "geonameid": 6320845,
                    "population": 30329,
                    "latitude": "-13.81558"
                },
                {
                    "name": "Gavião",
                    "longitude": "-39.77412",
                    "geonameid": 6320846,
                    "population": 4561,
                    "latitude": "-11.48891"
                },
                {
                    "name": "Gentio do Ouro",
                    "longitude": "-42.54827",
                    "geonameid": 6320847,
                    "population": 10720,
                    "latitude": "-11.36279"
                },
                {
                    "name": "Glória",
                    "longitude": "-38.40655",
                    "geonameid": 6324224,
                    "population": 15073,
                    "latitude": "-9.11097"
                },
                {
                    "name": "Gongogi",
                    "longitude": "-39.60138",
                    "geonameid": 6320848,
                    "population": 8344,
                    "latitude": "-14.29995"
                },
                {
                    "name": "Governador Mangabeira",
                    "longitude": "-39.03115",
                    "geonameid": 6320849,
                    "population": 19826,
                    "latitude": "-12.57719"
                },
                {
                    "name": "Guajeru",
                    "longitude": "-42.03986",
                    "geonameid": 6320850,
                    "population": 10383,
                    "latitude": "-14.57881"
                },
                {
                    "name": "Guanambi",
                    "longitude": "-42.82402",
                    "geonameid": 6320851,
                    "population": 78801,
                    "latitude": "-14.13304"
                },
                {
                    "name": "Guaratinga",
                    "longitude": "-39.97821",
                    "geonameid": 6320852,
                    "population": 22195,
                    "latitude": "-16.56987"
                },
                {
                    "name": "Heliópolis",
                    "longitude": "-38.2549",
                    "geonameid": 6320853,
                    "population": 12444,
                    "latitude": "-10.72863"
                },
                {
                    "name": "Iaçu",
                    "longitude": "-40.18337",
                    "geonameid": 6319077,
                    "population": 25735,
                    "latitude": "-12.7698"
                },
                {
                    "name": "Ibiassucê",
                    "longitude": "-42.30214",
                    "geonameid": 6320854,
                    "population": 10077,
                    "latitude": "-14.20285"
                },
                {
                    "name": "Ibicaraí",
                    "longitude": "-39.55979",
                    "geonameid": 6320855,
                    "population": 24241,
                    "latitude": "-14.87438"
                },
                {
                    "name": "Ibicoara",
                    "longitude": "-41.34081",
                    "geonameid": 6320856,
                    "population": 17301,
                    "latitude": "-13.37664"
                },
                {
                    "name": "Ibicuí",
                    "longitude": "-39.85568",
                    "geonameid": 6320857,
                    "population": 15786,
                    "latitude": "-14.6097"
                },
                {
                    "name": "Ibipeba",
                    "longitude": "-42.19079",
                    "geonameid": 6320858,
                    "population": 17021,
                    "latitude": "-11.49784"
                },
                {
                    "name": "Ibipitanga",
                    "longitude": "-42.37115",
                    "geonameid": 6320859,
                    "population": 14171,
                    "latitude": "-12.88655"
                },
                {
                    "name": "Ibiquera",
                    "longitude": "-40.84158",
                    "geonameid": 6320860,
                    "population": 4865,
                    "latitude": "-12.57265"
                },
                {
                    "name": "Ibirapitanga",
                    "longitude": "-39.40815",
                    "geonameid": 6320861,
                    "population": 22610,
                    "latitude": "-14.05893"
                },
                {
                    "name": "Ibirapuã",
                    "longitude": "-39.97365",
                    "geonameid": 6320862,
                    "population": 7960,
                    "latitude": "-17.75567"
                },
                {
                    "name": "Ibirataia",
                    "longitude": "-39.63714",
                    "geonameid": 6320863,
                    "population": 18946,
                    "latitude": "-13.97288"
                },
                {
                    "name": "Ibitiara",
                    "longitude": "-42.3899",
                    "geonameid": 6320864,
                    "population": 15519,
                    "latitude": "-12.56582"
                },
                {
                    "name": "Ibititá",
                    "longitude": "-41.84148",
                    "geonameid": 6320865,
                    "population": 17832,
                    "latitude": "-11.69354"
                },
                {
                    "name": "Ibotirama",
                    "longitude": "-43.25289",
                    "geonameid": 6320866,
                    "population": 25422,
                    "latitude": "-11.88616"
                },
                {
                    "name": "Ichu",
                    "longitude": "-39.18722",
                    "geonameid": 6320867,
                    "population": 5255,
                    "latitude": "-11.70344"
                },
                {
                    "name": "Igaporã",
                    "longitude": "-42.76046",
                    "geonameid": 6320868,
                    "population": 15194,
                    "latitude": "-13.89064"
                },
                {
                    "name": "Igrapiúna",
                    "longitude": "-39.19363",
                    "geonameid": 6320869,
                    "population": 13347,
                    "latitude": "-13.85607"
                },
                {
                    "name": "Iguaí",
                    "longitude": "-40.06165",
                    "geonameid": 6320870,
                    "population": 25724,
                    "latitude": "-14.61816"
                },
                {
                    "name": "Ilhéus",
                    "longitude": "-39.21795",
                    "geonameid": 6320871,
                    "population": 184231,
                    "latitude": "-14.75939"
                },
                {
                    "name": "Inhambupe",
                    "longitude": "-38.37037",
                    "geonameid": 6320872,
                    "population": 36290,
                    "latitude": "-11.7966"
                },
                {
                    "name": "Ipecaetá",
                    "longitude": "-39.32835",
                    "geonameid": 6320873,
                    "population": 15334,
                    "latitude": "-12.33777"
                },
                {
                    "name": "Ipiaú",
                    "longitude": "-39.72546",
                    "geonameid": 6320874,
                    "population": 44430,
                    "latitude": "-14.05705"
                },
                {
                    "name": "Ipirá",
                    "longitude": "-39.91639",
                    "geonameid": 6320875,
                    "population": 59352,
                    "latitude": "-12.27411"
                },
                {
                    "name": "Ipupiara",
                    "longitude": "-42.43301",
                    "geonameid": 6320876,
                    "population": 9290,
                    "latitude": "-11.76946"
                },
                {
                    "name": "Irajuba",
                    "longitude": "-39.9953",
                    "geonameid": 6320877,
                    "population": 7002,
                    "latitude": "-13.17999"
                },
                {
                    "name": "Iramaia",
                    "longitude": "-40.82834",
                    "geonameid": 6320878,
                    "population": 11988,
                    "latitude": "-13.54627"
                },
                {
                    "name": "Iraquara",
                    "longitude": "-41.59153",
                    "geonameid": 6320879,
                    "population": 22607,
                    "latitude": "-12.28624"
                },
                {
                    "name": "Irará",
                    "longitude": "-38.7362",
                    "geonameid": 6320880,
                    "population": 27492,
                    "latitude": "-12.04896"
                },
                {
                    "name": "Irecê",
                    "longitude": "-41.83445",
                    "geonameid": 6320881,
                    "population": 66404,
                    "latitude": "-11.30321"
                },
                {
                    "name": "Itabela",
                    "longitude": "-39.57325",
                    "geonameid": 6320882,
                    "population": 28399,
                    "latitude": "-16.71635"
                },
                {
                    "name": "Itaberaba",
                    "longitude": "-40.20305",
                    "geonameid": 6320883,
                    "population": 61623,
                    "latitude": "-12.45097"
                },
                {
                    "name": "Itabuna",
                    "longitude": "-39.32572",
                    "geonameid": 6320884,
                    "population": 204710,
                    "latitude": "-14.84966"
                },
                {
                    "name": "Itacaré",
                    "longitude": "-39.12515",
                    "geonameid": 6320885,
                    "population": 24340,
                    "latitude": "-14.36948"
                },
                {
                    "name": "Itaeté",
                    "longitude": "-41.02566",
                    "geonameid": 6320886,
                    "population": 14932,
                    "latitude": "-13.08598"
                },
                {
                    "name": "Itagi",
                    "longitude": "-40.033",
                    "geonameid": 6320887,
                    "population": 13053,
                    "latitude": "-14.19701"
                },
                {
                    "name": "Itagibá",
                    "longitude": "-39.84969",
                    "geonameid": 6320888,
                    "population": 15210,
                    "latitude": "-14.2464"
                },
                {
                    "name": "Itagimirim",
                    "longitude": "-39.81646",
                    "geonameid": 6320889,
                    "population": 7110,
                    "latitude": "-16.13473"
                },
                {
                    "name": "Itaguaçu da Bahia",
                    "longitude": "-42.21083",
                    "geonameid": 6320890,
                    "population": 13209,
                    "latitude": "-10.64259"
                },
                {
                    "name": "Itaju do Colônia",
                    "longitude": "-39.71598",
                    "geonameid": 6320891,
                    "population": 7278,
                    "latitude": "-15.15505"
                },
                {
                    "name": "Itajuípe",
                    "longitude": "-39.42921",
                    "geonameid": 6320892,
                    "population": 21094,
                    "latitude": "-14.69194"
                },
                {
                    "name": "Itamaraju",
                    "longitude": "-39.81271",
                    "geonameid": 6320893,
                    "population": 63355,
                    "latitude": "-16.94519"
                },
                {
                    "name": "Itamari",
                    "longitude": "-39.68416",
                    "geonameid": 6320894,
                    "population": 7904,
                    "latitude": "-13.7859"
                },
                {
                    "name": "Itambé",
                    "longitude": "-40.49507",
                    "geonameid": 6320895,
                    "population": 23106,
                    "latitude": "-15.22477"
                },
                {
                    "name": "Itanagra",
                    "longitude": "-38.11328",
                    "geonameid": 6320896,
                    "population": 7591,
                    "latitude": "-12.30982"
                },
                {
                    "name": "Itanhém",
                    "longitude": "-40.361",
                    "geonameid": 6320897,
                    "population": 20199,
                    "latitude": "-17.08113"
                },
                {
                    "name": "Itaparica",
                    "longitude": "-38.66383",
                    "geonameid": 6320898,
                    "population": 20760,
                    "latitude": "-12.90598"
                },
                {
                    "name": "Itapebi",
                    "longitude": "-39.68792",
                    "geonameid": 6320900,
                    "population": 10497,
                    "latitude": "-15.88751"
                },